{"category":"haircolor","clusters":[{"id":0,"lon":-115.13722,"state":"Nevada","group":0,"lat":36.17497,"city":"Las Vegas"},{"id":1,"lon":-112.07404,"state":"Arizona","group":1,"lat":33.44838,"city":"Phoenix"},{"id":2,"lon":-121.76801,"state":"California","group":2,"lat":37.68187,"city":"Livermore"},{"id":3,"lon":-118.15035,"state":"California","group":3,"lat":34.11612,"city":"South Pasadena"},{"id":4,"lon":-122.32553,"state":"California","group":4,"lat":37.56299,"city":"San Mateo"},{"id":5,"lon":-121.98857,"state":"California","group":5,"lat":37.54827,"city":"Fremont"},{"id":6,"lon":-117.04309,"state":"California","group":6,"lat":34.03363,"city":"Yucaipa"},{"id":7,"lon":-122.23635,"state":"California","group":7,"lat":37.48522,"city":"Redwood City"},{"id":8,"lon":-80.18671,"state":"Florida","group":8,"lat":25.89009,"city":"North Miami"},{"id":9,"lon":-122.71443,"state":"California","group":9,"lat":38.44047,"city":"Santa Rosa"},{"id":10,"lon":-122.03635,"state":"California","group":10,"lat":37.36883,"city":"Sunnyvale"},{"id":11,"lon":-121.6555,"state":"California","group":11,"lat":36.67774,"city":"Salinas"},{"id":12,"lon":-122.03107,"state":"California","group":12,"lat":37.97798,"city":"Concord"},{"id":13,"lon":-122.25664,"state":"California","group":13,"lat":38.10409,"city":"Vallejo"},{"id":14,"lon":-71.05977,"state":"Massachusetts","group":14,"lat":42.35843,"city":"Boston"},{"id":15,"lon":-122.2758,"state":"California","group":15,"lat":37.52021,"city":"Belmont"},{"id":16,"lon":-122.7011,"state":"California","group":16,"lat":38.33964,"city":"Rohnert Park"},{"id":17,"lon":-118.60592,"state":"California","group":17,"lat":34.16834,"city":"Woodland Hills"},{"id":18,"lon":-122.15608,"state":"California","group":18,"lat":37.72493,"city":"San Leandro"},{"id":19,"lon":-121.30273,"state":"California","group":19,"lat":38.58907,"city":"Rancho Cordova"},{"id":20,"lon":-121.95524,"state":"California","group":20,"lat":37.35411,"city":"Santa Clara"},{"id":21,"lon":-121.4944,"state":"California","group":21,"lat":38.58157,"city":"Sacramento"},{"id":22,"lon":-122.03997,"state":"California","group":22,"lat":38.24936,"city":"Fairfield"},{"id":23,"lon":-120.99688,"state":"California","group":23,"lat":37.6391,"city":"Modesto"},{"id":24,"lon":-121.83748,"state":"California","group":24,"lat":39.72849,"city":"Chico"},{"id":25,"lon":-117.65089,"state":"California","group":25,"lat":34.06334,"city":"Ontario"},{"id":26,"lon":-121.89496,"state":"California","group":26,"lat":37.33939,"city":"San Jose"}],"dates":["2014-07-03","2014-07-06","2014-07-14","2014-07-23"],"nodes":[{"id":0,"category":"black","appear":[0,1,1,1],"color":0,"changeTimes":[1,2,2,2],"appearTimes":[2,4,4,4],"label":"9174409662","categoryRecord":[{"black":2},{"black":2},{},{}]},{"id":1,"category":"light brown","appear":[-1,-1,-1,0],"color":1,"changeTimes":[0,0,0,1],"appearTimes":[0,0,0,15],"label":"7029173787","categoryRecord":[{},{},{},{"light brown":15}]},{"id":2,"category":"dark brown","appear":[-1,-1,-1,2],"color":2,"changeTimes":[0,0,0,1],"appearTimes":[0,0,0,16],"label":"4086136724","categoryRecord":[{},{},{},{"dark brown":16}]},{"id":3,"category":"dark brown","appear":[-1,-1,-1,3],"color":2,"changeTimes":[0,0,0,1],"appearTimes":[0,0,0,14],"label":"6269751682","categoryRecord":[{},{},{},{"dark brown":14}]},{"id":4,"category":"black","appear":[-1,-1,-1,4],"color":0,"changeTimes":[0,0,0,1],"appearTimes":[0,0,0,16],"label":"6505150164","categoryRecord":[{},{},{},{"black":16}]},{"id":5,"category":"blonde","appear":[-1,-1,-1,5],"color":3,"changeTimes":[0,0,0,1],"appearTimes":[0,0,0,13],"label":"4083900489","categoryRecord":[{},{},{},{"blonde":13}]},{"id":6,"category":"black","appear":[-1,-1,-1,6],"color":0,"changeTimes":[0,0,0,1],"appearTimes":[0,0,0,16],"label":"7029859865","categoryRecord":[{},{},{},{"black":16}]},{"id":7,"category":"blonde","appear":[-1,-1,-1,7],"color":3,"changeTimes":[0,0,0,1],"appearTimes":[0,0,0,15],"label":"6508985006","categoryRecord":[{},{},{},{"blonde":15}]},{"id":8,"category":"dark brown","appear":[-1,-1,-1,8],"color":2,"changeTimes":[0,0,0,1],"appearTimes":[0,0,0,15],"label":"3054794784","categoryRecord":[{},{},{},{"dark brown":15}]},{"id":9,"category":"dark brown","appear":[-1,-1,-1,9],"color":2,"changeTimes":[0,0,0,1],"appearTimes":[0,0,0,14],"label":"7077125478","categoryRecord":[{},{},{},{"dark brown":14}]},{"id":10,"category":"blonde","appear":[-1,-1,-1,10],"color":3,"changeTimes":[0,0,0,1],"appearTimes":[0,0,0,16],"label":"6505181837","categoryRecord":[{},{},{},{"blonde":16}]},{"id":11,"category":"light brown","appear":[-1,-1,-1,0],"color":1,"changeTimes":[0,0,0,1],"appearTimes":[0,0,0,16],"label":"7024275963","categoryRecord":[{},{},{},{"light brown":16}]},{"id":12,"category":"black","appear":[-1,-1,-1,0],"color":0,"changeTimes":[0,0,0,1],"appearTimes":[0,0,0,15],"label":"7026281503","categoryRecord":[{},{},{},{"black":15}]},{"id":13,"category":"black","appear":[-1,-1,-1,11],"color":0,"changeTimes":[0,0,0,1],"appearTimes":[0,0,0,17],"label":"6232212157","categoryRecord":[{},{},{},{"black":17}]},{"id":14,"category":"black","appear":[-1,-1,-1,12],"color":0,"changeTimes":[0,0,0,1],"appearTimes":[0,0,0,17],"label":"2092759481","categoryRecord":[{},{},{},{"black":17}]},{"id":15,"category":"auburn red","appear":[-1,-1,-1,4],"color":4,"changeTimes":[0,0,0,1],"appearTimes":[0,0,0,16],"label":"6502181294","categoryRecord":[{},{},{},{"auburn red":16}]},{"id":16,"category":"dark brown","appear":[-1,-1,-1,4],"color":2,"changeTimes":[0,0,0,1],"appearTimes":[0,0,0,15],"label":"3106958167","categoryRecord":[{},{},{},{"dark brown":15}]},{"id":17,"category":"black","appear":[-1,-1,-1,13],"color":0,"changeTimes":[0,0,0,1],"appearTimes":[0,0,0,8],"label":"70771204097077121672","categoryRecord":[{},{},{},{"black":8}]},{"id":18,"category":"black","appear":[-1,-1,-1,5],"color":0,"changeTimes":[0,0,0,1],"appearTimes":[0,0,0,17],"label":"4089912226","categoryRecord":[{},{},{},{"black":17}]},{"id":19,"category":"dark brown","appear":[-1,-1,-1,14],"color":2,"changeTimes":[0,0,0,1],"appearTimes":[0,0,0,16],"label":"8572366610","categoryRecord":[{},{},{},{"dark brown":16}]},{"id":20,"category":"light brown","appear":[-1,-1,-1,12],"color":1,"changeTimes":[0,0,0,1],"appearTimes":[0,0,0,16],"label":"4155325114","categoryRecord":[{},{},{},{"light brown":16}]},{"id":21,"category":"dark brown","appear":[-1,-1,-1,15],"color":2,"changeTimes":[0,0,0,1],"appearTimes":[0,0,0,17],"label":"9167301314","categoryRecord":[{},{},{},{"dark brown":17}]},{"id":22,"category":"light brown","appear":[-1,-1,-1,16],"color":1,"changeTimes":[0,0,0,1],"appearTimes":[0,0,0,17],"label":"07072396200","categoryRecord":[{},{},{},{"light brown":17}]},{"id":23,"category":"light brown","appear":[-1,-1,-1,17],"color":1,"changeTimes":[0,0,0,1],"appearTimes":[0,0,0,16],"label":"3238636502","categoryRecord":[{},{},{},{"light brown":16}]},{"id":24,"category":"light brown","appear":[-1,-1,-1,18],"color":1,"changeTimes":[0,0,0,1],"appearTimes":[0,0,0,15],"label":"27076760475","categoryRecord":[{},{},{},{"light brown":15}]},{"id":25,"category":"blonde","appear":[-1,-1,-1,19],"color":3,"changeTimes":[0,0,0,1],"appearTimes":[0,0,0,15],"label":"4153356541","categoryRecord":[{},{},{},{"blonde":15}]},{"id":26,"category":"blonde","appear":[-1,-1,-1,14],"color":3,"changeTimes":[0,0,0,1],"appearTimes":[0,0,0,16],"label":"2022866776","categoryRecord":[{},{},{},{"blonde":16}]},{"id":27,"category":"dark brown","appear":[-1,-1,-1,0],"color":2,"changeTimes":[0,0,0,1],"appearTimes":[0,0,0,16],"label":"7027433011","categoryRecord":[{},{},{},{"dark brown":16}]},{"id":28,"category":"light brown","appear":[-1,-1,-1,12],"color":1,"changeTimes":[0,0,0,1],"appearTimes":[0,0,0,17],"label":"7073864745","categoryRecord":[{},{},{},{"light brown":17}]},{"id":29,"category":"blonde","appear":[-1,-1,-1,20],"color":3,"changeTimes":[0,0,0,1],"appearTimes":[0,0,0,14],"label":"4156851034","categoryRecord":[{},{},{},{"blonde":14}]},{"id":30,"category":"light brown","appear":[-1,-1,-1,21],"color":1,"changeTimes":[0,0,0,1],"appearTimes":[0,0,0,2],"label":"2027043161","categoryRecord":[{},{},{},{"light brown":2}]},{"id":31,"category":"dark brown","appear":[-1,-1,-1,22],"color":2,"changeTimes":[0,0,0,1],"appearTimes":[0,0,0,15],"label":"9166122089","categoryRecord":[{},{},{},{"dark brown":15}]},{"id":32,"category":"auburn red","appear":[-1,-1,-1,23],"color":4,"changeTimes":[0,0,0,1],"appearTimes":[0,0,0,2],"label":"2028128706","categoryRecord":[{},{},{},{"auburn red":2}]},{"id":33,"category":"black","appear":[-1,-1,-1,13],"color":0,"changeTimes":[0,0,0,1],"appearTimes":[0,0,0,9],"label":"7077120409","categoryRecord":[{},{},{},{"black":9}]},{"id":34,"category":"dark brown","appear":[-1,-1,-1,24],"color":2,"changeTimes":[0,0,0,1],"appearTimes":[0,0,0,14],"label":"5108666079","categoryRecord":[{},{},{},{"dark brown":14}]},{"id":35,"category":"blonde","appear":[-1,-1,-1,8],"color":3,"changeTimes":[0,0,0,1],"appearTimes":[0,0,0,17],"label":"07863689175","categoryRecord":[{},{},{},{"blonde":17}]},{"id":36,"category":"blonde","appear":[-1,-1,-1,12],"color":3,"changeTimes":[0,0,0,1],"appearTimes":[0,0,0,17],"label":"9259141066","categoryRecord":[{},{},{},{"blonde":17}]},{"id":37,"category":"black","appear":[-1,-1,-1,4],"color":0,"changeTimes":[0,0,0,1],"appearTimes":[0,0,0,16],"label":"6509213301","categoryRecord":[{},{},{},{"black":16}]},{"id":38,"category":"black","appear":[-1,-1,-1,25],"color":0,"changeTimes":[0,0,0,1],"appearTimes":[0,0,0,16],"label":"3239010580","categoryRecord":[{},{},{},{"black":16}]},{"id":39,"category":"black","appear":[-1,-1,-1,26],"color":0,"changeTimes":[0,0,0,1],"appearTimes":[0,0,0,2],"label":"2024876402","categoryRecord":[{},{},{},{"black":2}]}],"categoryMap":{"blonde":3,"dark brown":2,"light brown":1,"auburn red":4,"black":0}}
